{"type":"FeatureCollection","features":[{"type":"Feature","properties":{"label":"Oxford Market"},"geometry":{"coordinates":[-0.13961822935158352,51.51635262652198],"type":"Point"},"id":0},{"type":"Feature","properties":{"label":"Castle Street"},"geometry":{"coordinates":[-0.137767028255098,51.51663939440115],"type":"Point"},"id":1},{"type":"Feature","properties":{"label":"Berners Street"},"geometry":{"coordinates":[-0.13590610971755268,51.51608206474347],"type":"Point"}},{"type":"Feature","properties":{"label":"Newman Street"},"geometry":{"coordinates":[-0.13472057529389758,51.51627653327475],"type":"Point"},"id":3},{"type":"Feature","properties":{"label":"Marlborough Mews"},"geometry":{"coordinates":[-0.13961471158225436,51.51489333102927],"type":"Point"}},{"type":"Feature","properties":{"label":"Carnaby Street"},"geometry":{"coordinates":[-0.13951431295922134,51.51385765508064],"type":"Point"}},{"type":"Feature","properties":{"label":"Warwick Street"},"geometry":{"coordinates":[-0.13816983156650053,51.51127519117853],"type":"Point"}},{"type":"Feature","properties":{"label":"Bridle Street"},"geometry":{"coordinates":[-0.1359107224081697,51.51150125186962],"type":"Point"}},{"type":"Feature","properties":{"label":"Broad Street"},"geometry":{"coordinates":[-0.1366147267971769,51.51332689436944],"type":"Point"}},{"type":"Feature","properties":{"label":"Tichborne Street"},"geometry":{"coordinates":[-0.1340032871291328,51.51005355813609],"type":"Point"}},{"type":"Feature","properties":{"label":"King Street"},"geometry":{"coordinates":[-0.1316414559242105,51.5123176070239],"type":"Point"},"id":10},{"type":"Feature","properties":{"label":"Rupert Street"},"geometry":{"coordinates":[-0.1335890456485913,51.51209762921934],"type":"Point"}},{"type":"Feature","properties":{"label":"Vigo Street"},"geometry":{"coordinates":[-0.13952537131001463,51.510147055512874],"type":"Point"}}]}